ID;name;country;lat;lon;demand;sigma
d1;Troyes;France;48.297345;4.074401;150;25
d2;Dijon;France;47.322047;5.041480;260;40
d3;Valence;France;44.914614;4.936295;120;20
d4;Bordeaux;France;44.863413;-0.670166;620;95
d5;Montpellier;France;43.604200;3.847275;180;25
d6;Nantes;France;47.250980;-1.560745;800;120
d7;Sevilla;Spain;37.426752;-5.968323;500;75
d8;Toledo;Spain;39.747322;-3.988037;400;60
d9;Zaragoza;Spain;41.700602;-0.769043;250;40
d10;Bilbao;Spain;43.204675;-2.941589;350;55


