ID;name;country;lat;lon;demand;sigma
d1;Troyes;France;48.297345;4.074401;150;25
d2;Dijon;France;47.322047;5.041480;260;40
d3;Valence;France;44.914614;4.936295;120;20
d4;Bordeaux;France;44.863413;-0.670166;620;95
d5;Montpellier;France;43.604200;3.847275;180;25
d6;Nantes;France;47.250980;-1.560745;800;120
